%time,field.name0,field.name1,field.pose0.position.x,field.pose0.position.y,field.pose0.position.z,field.pose0.orientation.x,field.pose0.orientation.y,field.pose0.orientation.z,field.pose0.orientation.w,field.pose1.position.x,field.pose1.position.y,field.pose1.position.z,field.pose1.orientation.x,field.pose1.orientation.y,field.pose1.orientation.z,field.pose1.orientation.w,field.twist0.linear.x,field.twist0.linear.y,field.twist0.linear.z,field.twist0.angular.x,field.twist0.angular.y,field.twist0.angular.z,field.twist1.linear.x,field.twist1.linear.y,field.twist1.linear.z,field.twist1.angular.x,field.twist1.angular.y,field.twist1.angular.z
240000000,DH_Ground,PONGBOT_LEG2_V1,0.0,0.0,0.0,0.0,0.0,0.0,1.0,-2.21322959959e-12,-1.1708786718e-11,0.00500000001023,-6.95564158518e-12,-4.0906472806e-11,1.91866296831e-11,1.0,0.0,0.0,0.0,0.0,0.0,0.0,2.37609196149e-10,-2.75052145216e-10,2.60264960388e-10,-2.97269555687e-10,-2.06876461432e-09,6.80708860867e-10
241000000,DH_Ground,PONGBOT_LEG2_V1,0.0,0.0,0.0,0.0,0.0,0.0,1.0,-2.03653760522e-12,-1.19080023619e-11,0.00500000001044,-7.0585342428e-12,-4.16789858058e-11,1.94387339538e-11,1.0,0.0,0.0,0.0,0.0,0.0,0.0,2.49731195097e-10,-2.89132650235e-10,2.72501424336e-10,-3.13398459407e-10,-2.17346979493e-09,7.15473640017e-10
242000000,DH_Ground,PONGBOT_LEG2_V1,0.0,0.0,0.0,0.0,0.0,0.0,1.0,-1.84952053672e-12,-1.21190973923e-11,0.00500000001067,-7.1680970355e-12,-4.24960856282e-11,1.97055861585e-11,1.0,0.0,0.0,0.0,0.0,0.0,0.0,2.53354107212e-10,-2.93323564735e-10,2.7580477477e-10,-3.1845480157e-10,-2.20433397385e-09,7.25848830073e-10
243000000,DH_Ground,PONGBOT_LEG2_V1,0.0,0.0,0.0,0.0,0.0,0.0,1.0,-1.65620295256e-12,-1.23373880556e-11,0.0050000000109,-7.28170715511e-12,-4.33402380318e-11,1.99813950439e-11,1.0,0.0,0.0,0.0,0.0,0.0,0.0,2.53462675594e-10,-2.93425382669e-10,2.75509939218e-10,-3.18878965412e-10,-2.20474528598e-09,7.26139378745e-10
244000000,DH_Ground,PONGBOT_LEG2_V1,0.0,0.0,0.0,0.0,0.0,0.0,1.0,-1.45944367702e-12,-1.25597379719e-11,0.00500000001114,-7.3976284025e-12,-4.41998543432e-11,2.02623330302e-11,1.0,0.0,0.0,0.0,0.0,0.0,0.0,2.51561677063e-10,-2.91189388786e-10,2.73221190821e-10,-3.16595704797e-10,-2.18781285456e-09,7.2066381079e-10
245000000,DH_Ground,PONGBOT_LEG2_V1,0.0,0.0,0.0,0.0,0.0,0.0,1.0,-1.25963128816e-12,-1.27853769238e-11,0.00500000001138,-7.51613653599e-12,-4.50710919374e-11,2.05474323325e-11,1.0,0.0,0.0,0.0,0.0,0.0,0.0,2.48671239045e-10,-2.87802317477e-10,2.699679389e-10,-3.12973809497e-10,-2.16234538147e-09,7.12349198207e-10
246000000,DH_Ground,PONGBOT_LEG2_V1,0.0,0.0,0.0,0.0,0.0,0.0,1.0,-1.05454533994e-12,-1.30169972024e-11,0.00500000001161,-7.64198626022e-12,-4.59601759437e-11,2.08401006339e-11,1.0,0.0,0.0,0.0,0.0,0.0,0.0,2.44530222651e-10,-2.82962883289e-10,2.65963308359e-10,-3.07372876585e-10,-2.12646797291e-09,7.00449094754e-10
247000000,DH_Ground,PONGBOT_LEG2_V1,0.0,0.0,0.0,0.0,0.0,0.0,1.0,-8.43825009866e-13,-1.32550082022e-11,0.00500000001183,-7.77534732312e-12,-4.68686060654e-11,2.1140814182e-11,1.0,0.0,0.0,0.0,0.0,0.0,0.0,2.39350893176e-10,-2.769276429e-10,2.63473005499e-10,-2.98838167025e-10,-2.08362508719e-09,6.85583810374e-10
248000000,DH_Ground,PONGBOT_LEG2_V1,0.0,0.0,0.0,0.0,0.0,0.0,1.0,-6.33354479973e-13,-1.34925820516e-11,0.00500000001205,-7.90937876822e-12,-4.77746271055e-11,2.14411213394e-11,1.0,0.0,0.0,0.0,0.0,0.0,0.0,2.32903937278e-10,-2.69429729535e-10,2.62363466286e-10,-2.87079228677e-10,-2.03181560014e-09,6.67095246396e-10
249000000,DH_Ground,PONGBOT_LEG2_V1,0.0,0.0,0.0,0.0,0.0,0.0,1.0,-4.26575441637e-13,-1.37257566424e-11,0.00500000001227,-8.03995820029e-12,-4.86657085828e-11,2.17360891737e-11,1.0,0.0,0.0,0.0,0.0,0.0,0.0,2.2665768552e-10,-2.6216828755e-10,2.62067732098e-10,-2.75216296215e-10,-1.98222783721e-09,6.49186041308e-10
250000000,DH_Ground,PONGBOT_LEG2_V1,0.0,0.0,0.0,0.0,0.0,0.0,1.0,-2.24875673638e-13,-1.39529707233e-11,0.00500000001248,-8.16608460751e-12,-4.95361478373e-11,2.20237810168e-11,1.0,0.0,0.0,0.0,0.0,0.0,0.0,2.2093703082e-10,-2.55515956598e-10,2.6172846659e-10,-2.64385270446e-10,-1.93676028408e-09,6.32782171066e-10
251000000,DH_Ground,PONGBOT_LEG2_V1,0.0,0.0,0.0,0.0,0.0,0.0,1.0,-3.07254222065e-14,-1.41713377144e-11,0.0050000000127,-8.2857743096e-12,-5.03755979952e-11,2.23006249359e-11,1.0,0.0,0.0,0.0,0.0,0.0,0.0,2.14956693576e-10,-2.48558234762e-10,2.60285629151e-10,-2.53702479852e-10,-1.8884094725e-09,6.15629144654e-10
252000000,DH_Ground,PONGBOT_LEG2_V1,0.0,0.0,0.0,0.0,0.0,0.0,1.0,1.53210777398e-13,-1.43777004191e-11,0.00500000001291,-8.39777127719e-12,-5.11717359955e-11,2.25627580842e-11,1.0,0.0,0.0,0.0,0.0,0.0,0.0,2.09317853299e-10,-2.41993646723e-10,2.58131125208e-10,-2.44091816088e-10,-1.84221248993e-09,5.99450923673e-10
253000000,DH_Ground,PONGBOT_LEG2_V1,0.0,0.0,0.0,0.0,0.0,0.0,1.0,3.30568905582e-13,-1.45763678905e-11,0.00500000001311,-8.50526937578e-12,-5.19394745953e-11,2.28154446356e-11,1.0,0.0,0.0,0.0,0.0,0.0,0.0,2.05324659204e-10,-2.3734068593e-10,2.56812898099e-10,-2.37127100159e-10,-1.80966554571e-09,5.87991140992e-10
254000000,DH_Ground,PONGBOT_LEG2_V1,0.0,0.0,0.0,0.0,0.0,0.0,1.0,5.3018700541e-13,-1.48008133527e-11,0.00500000001333,-8.62829816052e-12,-5.2802491409e-11,2.31000708057e-11,1.0,0.0,0.0,0.0,0.0,0.0,0.0,2.01629141274e-10,-2.33033128102e-10,2.55459151104e-10,-2.3076045727e-10,-1.7794366852e-09,5.7738422732e-10
255000000,DH_Ground,PONGBOT_LEG2_V1,0.0,0.0,0.0,0.0,0.0,0.0,1.0,7.58837437331e-13,-1.50587875503e-11,0.00500000001357,-8.77131570658e-12,-5.37896951766e-11,2.34262330081e-11,1.0,0.0,0.0,0.0,0.0,0.0,0.0,1.91252018617e-10,-2.20951199147e-10,2.47508718733e-10,-2.1554227554e-10,-1.6913499783e-09,5.47604042666e-10
256000000,DH_Ground,PONGBOT_LEG2_V1,0.0,0.0,0.0,0.0,0.0,0.0,1.0,1.07255870851e-12,-1.54154120025e-11,0.00500000001387,-8.98066137399e-12,-5.51324634629e-11,2.38744978852e-11,1.0,0.0,0.0,0.0,0.0,0.0,0.0,1.70037590275e-10,-1.96257852643e-10,2.28388338964e-10,-1.86278261197e-10,-1.5090062728e-09,4.86723265604e-10
257000000,DH_Ground,PONGBOT_LEG2_V1,0.0,0.0,0.0,0.0,0.0,0.0,1.0,1.04180553073e-12,-1.53713361484e-11,0.00500000001395,-8.92394659397e-12,-5.5029051884e-11,2.38272955092e-11,1.0,0.0,0.0,0.0,0.0,0.0,0.0,-2.04138951261e-10,2.41401372301e-10,-1.11102395084e-10,3.2761306459e-10,1.72650865796e-09,-5.93665404919e-10
258000000,DH_Ground,PONGBOT_LEG2_V1,0.0,0.0,0.0,0.0,0.0,0.0,1.0,1.27986510279e-12,-1.56405929874e-11,0.0050000000143,-9.0489467303e-12,-5.60884568331e-11,2.41672065204e-11,1.0,0.0,0.0,0.0,0.0,0.0,0.0,4.50720149813e-11,-5.07760289872e-11,1.29227136887e-10,-1.21629160788e-11,-4.37080802343e-10,1.2794933286e-10
259000000,DH_Ground,PONGBOT_LEG2_V1,0.0,0.0,0.0,0.0,0.0,0.0,1.0,1.62811431004e-12,-1.60375601688e-11,0.00500000001475,-9.24908143317e-12,-5.76213012355e-11,2.46650379772e-11,1.0,0.0,0.0,0.0,0.0,0.0,0.0,1.50941185194e-10,-1.73997101658e-10,2.2695865672e-10,-1.56997708948e-10,-1.34819651938e-09,4.31888316114e-10
260000000,DH_Ground,PONGBOT_LEG2_V1,0.0,0.0,0.0,0.0,0.0,0.0,1.0,1.98310812216e-12,-1.64422989113e-11,0.00500000001519,-9.45679936938e-12,-5.91796179059e-11,2.51726516288e-11,1.0,0.0,0.0,0.0,0.0,0.0,0.0,1.39057741934e-10,-1.60106127162e-10,2.09544158252e-10,-1.42878340061e-10,-1.24289138122e-09,3.97722569665e-10
261000000,DH_Ground,PONGBOT_LEG2_V1,0.0,0.0,0.0,0.0,0.0,0.0,1.0,2.2913060338e-12,-1.67923036587e-11,0.00500000001558,-9.63673436789e-12,-6.05304647488e-11,2.56129249273e-11,1.0,0.0,0.0,0.0,0.0,0.0,0.0,6.8657477717e-11,-7.80484499026e-11,1.27213868549e-10,-5.57813584061e-11,-6.24721656486e-10,1.95513192268e-10
262000000,DH_Ground,PONGBOT_LEG2_V1,0.0,0.0,0.0,0.0,0.0,0.0,1.0,2.56489274264e-12,-1.71020558826e-11,0.00500000001592,-9.79640851426e-12,-6.17284092021e-11,2.60036523043e-11,1.0,0.0,0.0,0.0,0.0,0.0,0.0,7.20259247341e-12,-6.1215236787e-12,5.6144894478e-11,2.11170938901e-11,-8.38822271641e-11,1.81849469131e-11
263000000,DH_Ground,PONGBOT_LEG2_V1,0.0,0.0,0.0,0.0,0.0,0.0,1.0,2.81938361546e-12,-1.73892636401e-11,0.00500000001623,-9.94526367606e-12,-6.28403800828e-11,2.6366734083e-11,1.0,0.0,0.0,0.0,0.0,0.0,0.0,-3.84852666239e-11,4.7555767018e-11,3.26761531932e-12,7.86111113004e-11,3.19582882282e-10,-1.14304736205e-10
264000000,DH_Ground,PONGBOT_LEG2_V1,0.0,0.0,0.0,0.0,0.0,0.0,1.0,3.06341063627e-12,-1.76642381278e-11,0.00500000001653,-1.00886640583e-11,-6.39052098584e-11,2.6714837427e-11,1.0,0.0,0.0,0.0,0.0,0.0,0.0,-7.42906831052e-11,8.96264064063e-11,-3.77898267527e-11,1.23896459646e-10,6.35523515672e-10,-2.18140555977e-10
265000000,DH_Ground,PONGBOT_LEG2_V1,0.0,0.0,0.0,0.0,0.0,0.0,1.0,3.30110938584e-12,-1.79317255489e-11,0.00500000001681,-1.02290221161e-11,-6.49410757035e-11,2.70538569337e-11,1.0,0.0,0.0,0.0,0.0,0.0,0.0,-1.05363585158e-10,1.26136900844e-10,-7.28338648376e-11,1.63516517757e-10,9.09311793679e-10,-3.08251853356e-10
266000000,DH_Ground,PONGBOT_LEG2_V1,0.0,0.0,0.0,0.0,0.0,0.0,1.0,3.53297946454e-12,-1.81922601983e-11,0.00500000001709,-1.03664036475e-11,-6.59501627719e-11,2.73844209282e-11,1.0,0.0,0.0,0.0,0.0,0.0,0.0,-1.35640544614e-10,1.61708240371e-10,-1.06230308823e-10,2.02522443673e-10,1.17555607296e-09,-3.96049282174e-10
267000000,DH_Ground,PONGBOT_LEG2_V1,0.0,0.0,0.0,0.0,0.0,0.0,1.0,3.75871556102e-12,-1.8445515948e-11,0.00500000001735,-1.05004862469e-11,-6.69314353532e-11,2.77061287683e-11,1.0,0.0,0.0,0.0,0.0,0.0,0.0,-1.65703890531e-10,1.97025355377e-10,-1.38874471318e-10,2.41524877852e-10,1.43956920733e-09,-4.83222802475e-10
268000000,DH_Ground,PONGBOT_LEG2_V1,0.0,0.0,0.0,0.0,0.0,0.0,1.0,3.97759603032e-12,-1.86907156419e-11,0.00500000001761,-1.06307033496e-11,-6.78821295009e-11,2.80180115138e-11,1.0,0.0,0.0,0.0,0.0,0.0,0.0,-1.95814524381e-10,2.32394588112e-10,-1.71081928853e-10,2.80832874026e-10,1.70365963015e-09,-5.70528737354e-10
269000000,DH_Ground,PONGBOT_LEG2_V1,0.0,0.0,0.0,0.0,0.0,0.0,1.0,4.1895653613e-12,-1.89277482576e-11,0.00500000001786,-1.0756942522e-11,-6.88018718105e-11,2.8319925536e-11,1.0,0.0,0.0,0.0,0.0,0.0,0.0,-2.25193460837e-10,2.66902804547e-10,-2.0224400626e-10,3.19321421688e-10,1.96115557508e-09,-6.55710982836e-10
270000000,DH_Ground,PONGBOT_LEG2_V1,0.0,0.0,0.0,0.0,0.0,0.0,1.0,4.39442926492e-12,-1.91564611396e-11,0.0050000000181,-1.08790599702e-11,-6.96900913155e-11,2.86116609735e-11,1.0,0.0,0.0,0.0,0.0,0.0,0.0,-2.54013001057e-10,3.00751880718e-10,-2.32493748124e-10,3.57245484453e-10,2.2135246854e-09,-7.39268430607e-10
271000000,DH_Ground,PONGBOT_LEG2_V1,0.0,0.0,0.0,0.0,0.0,0.0,1.0,4.59249305251e-12,-1.93770971491e-11,0.00500000001833,-1.09972069123e-11,-7.05478267215e-11,2.88935596811e-11,1.0,0.0,0.0,0.0,0.0,0.0,0.0,-2.81920180109e-10,3.33528448674e-10,-2.61610453538e-10,3.94059174179e-10,2.45779296624e-09,-8.20179365728e-10
272000000,DH_Ground,PONGBOT_LEG2_V1,0.0,0.0,0.0,0.0,0.0,0.0,1.0,4.7833959016e-12,-1.95893648525e-11,0.00500000001855,-1.11111491321e-11,-7.13739224619e-11,2.91652178625e-11,1.0,0.0,0.0,0.0,0.0,0.0,0.0,-3.09209438467e-10,3.65577484263e-10,-2.89817704877e-10,4.30204786091e-10,2.69645906076e-09,-8.99296303094e-10
273000000,DH_Ground,PONGBOT_LEG2_V1,0.0,0.0,0.0,0.0,0.0,0.0,1.0,4.96741536793e-12,-1.97934516e-11,0.00500000001876,-1.12209418866e-11,-7.21692727412e-11,2.94269005918e-11,1.0,0.0,0.0,0.0,0.0,0.0,0.0,-3.35660190906e-10,3.96640918122e-10,-3.17017056747e-10,4.6530177097e-10,2.92769633948e-09,-9.75981035741e-10
274000000,DH_Ground,PONGBOT_LEG2_V1,0.0,0.0,0.0,0.0,0.0,0.0,1.0,5.14419062903e-12,-1.99889688135e-11,0.00500000001896,-1.13262442305e-11,-7.29324481549e-11,2.96780902466e-11,1.0,0.0,0.0,0.0,0.0,0.0,0.0,-3.61615089495e-10,4.2712073104e-10,-3.4356791237e-10,4.99824607439e-10,3.15449813736e-09,-1.05122654054e-09
275000000,DH_Ground,PONGBOT_LEG2_V1,0.0,0.0,0.0,0.0,0.0,0.0,1.0,5.31372168489e-12,-2.01760344543e-11,0.00500000001916,-1.14271456486e-11,-7.36639110965e-11,2.99189435716e-11,1.0,0.0,0.0,0.0,0.0,0.0,0.0,-3.86631678954e-10,4.56498487243e-10,-3.69162542591e-10,5.33099252185e-10,3.37309195111e-09,-1.1237515716e-09
276000000,DH_Ground,PONGBOT_LEG2_V1,0.0,0.0,0.0,0.0,0.0,0.0,1.0,5.4757864909e-12,-2.03543917832e-11,0.00500000001934,-1.15235074862e-11,-7.4362571288e-11,3.01491088852e-11,1.0,0.0,0.0,0.0,0.0,0.0,0.0,-4.1113725596e-10,4.8527515938e-10,-3.94135126966e-10,5.65738219505e-10,3.58716301155e-09,-1.19479388526e-09
277000000,DH_Ground,PONGBOT_LEG2_V1,0.0,0.0,0.0,0.0,0.0,0.0,1.0,5.66402480473e-12,-2.0562447578e-11,0.00500000001947,-1.16603258964e-11,-7.51436149978e-11,3.04164470352e-11,1.0,0.0,0.0,0.0,0.0,0.0,0.0,-4.34923667008e-10,5.1320718152e-10,-4.18419679065e-10,5.97390269664e-10,3.79498483081e-09,-1.26375121185e-09
278000000,DH_Ground,PONGBOT_LEG2_V1,0.0,0.0,0.0,0.0,0.0,0.0,1.0,5.88615267638e-12,-2.08094375065e-11,0.00500000001957,-1.18397905691e-11,-7.60450927013e-11,3.07322905317e-11,1.0,0.0,0.0,0.0,0.0,0.0,0.0,-4.65534253734e-10,5.49063776128e-10,-4.3468408248e-10,6.47015435557e-10,4.05073048366e-09,-1.3523651727e-09
279000000,DH_Ground,PONGBOT_LEG2_V1,0.0,0.0,0.0,0.0,0.0,0.0,1.0,6.13079031986e-12,-2.10823442037e-11,0.00500000001967,-1.20386652435e-11,-7.70378451313e-11,3.10803435829e-11,1.0,0.0,0.0,0.0,0.0,0.0,0.0,-5.01659961588e-10,5.91319093821e-10,-4.42763722763e-10,7.11961448405e-10,4.34416296684e-09,-1.45685636382e-09
280000000,DH_Ground,PONGBOT_LEG2_V1,0.0,0.0,0.0,0.0,0.0,0.0,1.0,6.37936925507e-12,-2.13598860821e-11,0.0050000000198,-1.22328550967e-11,-7.80570003614e-11,3.14340980663e-11,1.0,0.0,0.0,0.0,0.0,0.0,0.0,-5.42567068236e-10,6.39170446195e-10,-4.5230066658e-10,7.85053075604e-10,4.67701247498e-09,-1.57518246861e-09
281000000,DH_Ground,PONGBOT_LEG2_V1,0.0,0.0,0.0,0.0,0.0,0.0,1.0,6.6138206023e-12,-2.16212464599e-11,0.00500000001997,-1.24024674214e-11,-7.90348779261e-11,3.17677470427e-11,1.0,0.0,0.0,0.0,0.0,0.0,0.0,-5.85271019447e-10,6.89160021926e-10,-4.68482001524e-10,8.57490386692e-10,5.02955678874e-09,-1.69875845514e-09
282000000,DH_Ground,PONGBOT_LEG2_V1,0.0,0.0,0.0,0.0,0.0,0.0,1.0,6.82626177806e-12,-2.18570439525e-11,0.00500000002014,-1.2546799845e-11,-7.9931046314e-11,3.20698086855e-11,1.0,0.0,0.0,0.0,0.0,0.0,0.0,-6.26787258834e-10,7.37813859766e-10,-4.9372574908e-10,9.22144075851e-10,5.379862994e-09,-1.81897604696e-09
283000000,DH_Ground,PONGBOT_LEG2_V1,0.0,0.0,0.0,0.0,0.0,0.0,1.0,7.01280700177e-12,-2.20627197067e-11,0.00500000002033,-1.26634663954e-11,-8.07285363622e-11,3.23347120728e-11,1.0,0.0,0.0,0.0,0.0,0.0,0.0,-6.65342157838e-10,7.83033006446e-10,-5.23348588924e-10,9.7840716436e-10,5.71017085531e-09,-1.93067019707e-09
284000000,DH_Ground,PONGBOT_LEG2_V1,0.0,0.0,0.0,0.0,0.0,0.0,1.0,7.17109704951e-12,-2.22359838875e-11,0.00500000002052,-1.27517055223e-11,-8.14179563365e-11,3.25597628928e-11,1.0,0.0,0.0,0.0,0.0,0.0,0.0,-7.00422980168e-10,8.24214059933e-10,-5.56750940164e-10,1.02574369463e-09,6.01585086738e-09,-2.03235278454e-09
285000000,DH_Ground,PONGBOT_LEG2_V1,0.0,0.0,0.0,0.0,0.0,0.0,1.0,7.30207561084e-12,-2.23774748731e-11,0.00500000002072,-1.28126015417e-11,-8.2000531205e-11,3.27454549436e-11,1.0,0.0,0.0,0.0,0.0,0.0,0.0,-7.3118367125e-10,8.60362756349e-10,-5.92828399595e-10,1.06314134244e-09,6.28931330798e-09,-2.1215696534e-09
286000000,DH_Ground,PONGBOT_LEG2_V1,0.0,0.0,0.0,0.0,0.0,0.0,1.0,7.40901784368e-12,-2.24907314994e-11,0.00500000002091,-1.28513610739e-11,-8.24855178466e-11,3.28962009532e-11,1.0,0.0,0.0,0.0,0.0,0.0,0.0,-7.58023667154e-10,8.91944136021e-10,-6.31406784299e-10,1.09150461824e-09,6.53354239074e-09,-2.19947306189e-09
287000000,DH_Ground,PONGBOT_LEG2_V1,0.0,0.0,0.0,0.0,0.0,0.0,1.0,7.49181272575e-12,-2.25758647887e-11,0.00500000002108,-1.28714500395e-11,-8.28691116185e-11,3.30121642956e-11,1.0,0.0,0.0,0.0,0.0,0.0,0.0,-7.81084331115e-10,9.19112626273e-10,-6.70542083729e-10,1.11224604833e-09,6.74814910631e-09,-2.26645607392e-09
288000000,DH_Ground,PONGBOT_LEG2_V1,0.0,0.0,0.0,0.0,0.0,0.0,1.0,7.55437379318e-12,-2.26372184886e-11,0.00500000002125,-1.2876360654e-11,-8.31663762777e-11,3.30987662186e-11,1.0,0.0,0.0,0.0,0.0,0.0,0.0,-8.00688063654e-10,9.42232910327e-10,-7.0821563969e-10,1.12720395755e-09,6.93410377172e-09,-2.32343349742e-09
289000000,DH_Ground,PONGBOT_LEG2_V1,0.0,0.0,0.0,0.0,0.0,0.0,1.0,7.59789453575e-12,-2.26761873168e-11,0.00500000002139,-1.2868404293e-11,-8.3380555938e-11,3.3157723242e-11,1.0,0.0,0.0,0.0,0.0,0.0,0.0,-8.17388725454e-10,9.61952164163e-10,-7.44452755809e-10,1.13744707092e-09,7.09580356038e-09,-2.37200634833e-09
290000000,DH_Ground,PONGBOT_LEG2_V1,0.0,0.0,0.0,0.0,0.0,0.0,1.0,7.62342966532e-12,-2.26940827242e-11,0.00500000002151,-1.28498861223e-11,-8.35145042088e-11,3.31906412255e-11,1.0,0.0,0.0,0.0,0.0,0.0,0.0,-8.31562260679e-10,9.78705178217e-10,-7.78495371231e-10,1.14414379868e-09,7.23565046003e-09,-2.41325496135e-09
291000000,DH_Ground,PONGBOT_LEG2_V1,0.0,0.0,0.0,0.0,0.0,0.0,1.0,7.35536631602e-12,-2.23685583944e-11,0.00500000002136,-1.26256067644e-11,-8.23812607682e-11,3.27984614888e-11,1.0,0.0,0.0,0.0,0.0,0.0,0.0,-7.29604117881e-10,8.59141777426e-10,-6.84741133722e-10,1.00278346104e-09,6.35316171285e-09,-2.11788494521e-09
292000000,DH_Ground,PONGBOT_LEG2_V1,0.0,0.0,0.0,0.0,0.0,0.0,1.0,7.39924788107e-12,-2.24059382159e-11,0.00500000002118,-1.27175121683e-11,-8.24659081661e-11,3.28567295675e-11,1.0,0.0,0.0,0.0,0.0,0.0,0.0,-9.06987063733e-10,1.06754731158e-09,-9.1852704165e-10,1.20411327958e-09,7.94696211228e-09,-2.63233325527e-09
293000000,DH_Ground,PONGBOT_LEG2_V1,0.0,0.0,0.0,0.0,0.0,0.0,1.0,7.45331574237e-12,-2.24575566476e-11,0.00500000002136,-1.27094366992e-11,-8.27358577487e-11,3.29311210466e-11,1.0,0.0,0.0,0.0,0.0,0.0,0.0,-7.88849250965e-10,9.28552878959e-10,-7.34146553082e-10,1.0877931381e-09,6.86180531805e-09,-2.28943322905e-09
294000000,DH_Ground,PONGBOT_LEG2_V1,0.0,0.0,0.0,0.0,0.0,0.0,1.0,7.47668593704e-12,-2.24730511977e-11,0.00500000002149,-1.26855532777e-11,-8.2865539807e-11,3.29609275985e-11,1.0,0.0,0.0,0.0,0.0,0.0,0.0,-8.08078992696e-10,9.51271958164e-10,-7.78781561563e-10,1.09790481843e-09,7.05019006291e-09,-2.34538198168e-09
295000000,DH_Ground,PONGBOT_LEG2_V1,0.0,0.0,0.0,0.0,0.0,0.0,1.0,7.18120007903e-12,-2.21155246893e-11,0.0050000000213,-1.24491033716e-11,-8.16053623859e-11,3.25291439267e-11,1.0,0.0,0.0,0.0,0.0,0.0,0.0,-6.93244499964e-10,8.16617294976e-10,-6.74949895273e-10,9.37753818923e-10,6.05748580936e-09,-2.01272184632e-09
296000000,DH_Ground,PONGBOT_LEG2_V1,0.0,0.0,0.0,0.0,0.0,0.0,1.0,7.24192927848e-12,-2.21729301586e-11,0.00500000002118,-1.25392936603e-11,-8.17803969136e-11,3.26119086952e-11,1.0,0.0,0.0,0.0,0.0,0.0,0.0,-8.96876637947e-10,1.05582326479e-09,-9.36858178116e-10,1.1731464988e-09,7.88150872097e-09,-2.60324116151e-09
297000000,DH_Ground,PONGBOT_LEG2_V1,0.0,0.0,0.0,0.0,0.0,0.0,1.0,7.27143345536e-12,-2.21958423863e-11,0.00500000002132,-1.25172094799e-11,-8.19403588705e-11,3.2650732119e-11,1.0,0.0,0.0,0.0,0.0,0.0,0.0,-7.74773532582e-10,9.12217494116e-10,-7.55328295252e-10,1.04763167342e-09,6.76693055444e-09,-2.24890859808e-09
298000000,DH_Ground,PONGBOT_LEG2_V1,0.0,0.0,0.0,0.0,0.0,0.0,1.0,6.9769190425e-12,-2.18395718177e-11,0.00500000002113,-1.228151098e-11,-8.0684413562e-11,3.22203671823e-11,1.0,0.0,0.0,0.0,0.0,0.0,0.0,-6.4595357523e-10,7.61157402925e-10,-6.37535150665e-10,8.68688011472e-10,5.65241622711e-09,-1.87572559306e-09
299000000,DH_Ground,PONGBOT_LEG2_V1,0.0,0.0,0.0,0.0,0.0,0.0,1.0,7.04902802795e-12,-2.19107371136e-11,0.00500000002105,-1.23681868456e-11,-8.09238829285e-11,3.23197933294e-11,1.0,0.0,0.0,0.0,0.0,0.0,0.0,-8.74615161642e-10,1.02974687428e-09,-9.27857130402e-10,1.13555231871e-09,7.69735074813e-09,-2.53880057222e-09
300000000,DH_Ground,PONGBOT_LEG2_V1,0.0,0.0,0.0,0.0,0.0,0.0,1.0,7.06568137332e-12,-2.19190013362e-11,0.0050000000212,-1.23337503754e-11,-8.10334190016e-11,3.23402234146e-11,1.0,0.0,0.0,0.0,0.0,0.0,0.0,-7.50545324954e-10,8.83878341778e-10,-7.51844162985e-10,1.0029823101e-09,6.57141505544e-09,-2.17883232309e-09
301000000,DH_Ground,PONGBOT_LEG2_V1,0.0,0.0,0.0,0.0,0.0,0.0,1.0,6.75906552949e-12,-2.1548575424e-11,0.00500000002098,-1.20938789576e-11,-7.97198195991e-11,3.18923060251e-11,1.0,0.0,0.0,0.0,0.0,0.0,0.0,-6.10709462783e-10,7.19905287508e-10,-6.25250668353e-10,8.07973250133e-10,5.36250662863e-09,-1.7737441089e-09
302000000,DH_Ground,PONGBOT_LEG2_V1,0.0,0.0,0.0,0.0,0.0,0.0,1.0,6.82839895738e-12,-2.16170761846e-11,0.00500000002095,-1.21664691929e-11,-7.99639503127e-11,3.19880322828e-11,1.0,0.0,0.0,0.0,0.0,0.0,0.0,-8.53929541457e-10,1.00557050675e-09,-9.29793778612e-10,1.09453292325e-09,7.53413242429e-09,-2.47900012625e-09
303000000,DH_Ground,PONGBOT_LEG2_V1,0.0,0.0,0.0,0.0,0.0,0.0,1.0,6.83009204749e-12,-2.16080556226e-11,0.00500000002108,-1.21209405961e-11,-8.00099160668e-11,3.19868442025e-11,1.0,0.0,0.0,0.0,0.0,0.0,0.0,-7.27252190137e-10,8.56692608181e-10,-7.59876375931e-10,9.53284050219e-10,6.39224517125e-09,-2.1115473615e-09
304000000,DH_Ground,PONGBOT_LEG2_V1,0.0,0.0,0.0,0.0,0.0,0.0,1.0,6.50993148277e-12,-2.12217812767e-11,0.00500000002082,-1.18800108764e-11,-7.86272544386e-11,3.15192901613e-11,1.0,0.0,0.0,0.0,0.0,0.0,0.0,-5.78225410762e-10,6.81936518326e-10,-6.24549327674e-10,7.45771351958e-10,5.10339817077e-09,-1.67982640856e-09
305000000,DH_Ground,PONGBOT_LEG2_V1,0.0,0.0,0.0,0.0,0.0,0.0,1.0,6.57179866081e-12,-2.12820178147e-11,0.00500000002081,-1.19370598613e-11,-7.88533029889e-11,3.16044510905e-11,1.0,0.0,0.0,0.0,0.0,0.0,0.0,-8.32207481954e-10,9.80205563652e-10,-9.36403859504e-10,1.04878215188e-09,7.36619438345e-09,-2.41623666498e-09
306000000,DH_Ground,PONGBOT_LEG2_V1,0.0,0.0,0.0,0.0,0.0,0.0,1.0,6.55714371689e-12,-2.12540401945e-11,0.00500000002093,-1.1880079548e-11,-7.88289825764e-11,3.15796308825e-11,1.0,0.0,0.0,0.0,0.0,0.0,0.0,-7.03501549783e-10,8.28992305328e-10,-7.72346723176e-10,9.00109013507e-10,6.21282076365e-09,-2.04296991497e-09
307000000,DH_Ground,PONGBOT_LEG2_V1,0.0,0.0,0.0,0.0,0.0,0.0,1.0,6.2249927435e-12,-2.08536937718e-11,0.00500000002063,-1.164088411e-11,-7.73816327304e-11,3.10946453121e-11,1.0,0.0,0.0,0.0,0.0,0.0,0.0,-5.47627938256e-10,6.46200603013e-10,-6.30287975974e-10,6.83489455655e-10,4.86416865718e-09,-1.59140512867e-09
308000000,DH_Ground,PONGBOT_LEG2_V1,0.0,0.0,0.0,0.0,0.0,0.0,1.0,6.27603524705e-12,-2.09015096897e-11,0.00500000002062,-1.16863508116e-11,-7.75666093452e-11,3.11642379055e-11,1.0,0.0,0.0,0.0,0.0,0.0,0.0,-8.08341941499e-10,9.52337642576e-10,-9.43955231106e-10,9.98398174064e-10,7.18188592902e-09,-2.34728038193e-09
309000000,DH_Ground,PONGBOT_LEG2_V1,0.0,0.0,0.0,0.0,0.0,0.0,1.0,6.24597595866e-12,-2.08556852344e-11,0.00500000002072,-1.16210003808e-11,-7.74731481822e-11,3.11171842108e-11,1.0,0.0,0.0,0.0,0.0,0.0,0.0,-6.78660411895e-10,7.99999771765e-10,-7.82624106876e-10,8.46197195215e-10,6.02294134468e-09,-1.97121576716e-09
310000000,DH_Ground,PONGBOT_LEG2_V1,0.0,0.0,0.0,0.0,0.0,0.0,1.0,5.90394400035e-12,-2.04437022866e-11,0.00500000002038,-1.13847201459e-11,-7.59705167777e-11,3.06178059425e-11,1.0,0.0,0.0,0.0,0.0,0.0,0.0,-5.20167931157e-10,6.14126180805e-10,-6.36928803838e-10,6.26813882621e-10,4.65047072474e-09,-1.51204931138e-09
311000000,DH_Ground,PONGBOT_LEG2_V1,0.0,0.0,0.0,0.0,0.0,0.0,1.0,5.94260751718e-12,-2.04771824497e-11,0.00500000002034,-1.14259219345e-11,-7.60968719918e-11,3.06695397075e-11,1.0,0.0,0.0,0.0,0.0,0.0,0.0,-7.82085509465e-10,9.21642629241e-10,-9.46327325424e-10,9.46549305509e-10,6.97446153889e-09,-2.27136585511e-09
312000000,DH_Ground,PONGBOT_LEG2_V1,0.0,0.0,0.0,0.0,0.0,0.0,1.0,5.89889248559e-12,-2.04155164996e-11,0.00500000002042,-1.13533055516e-11,-7.59418540308e-11,3.06027521314e-11,1.0,0.0,0.0,0.0,0.0,0.0,0.0,-6.52495039351e-10,7.69400456806e-10,-7.83377770612e-10,7.95429627803e-10,5.81505444666e-09,-1.89554969041e-09
313000000,DH_Ground,PONGBOT_LEG2_V1,0.0,0.0,0.0,0.0,0.0,0.0,1.0,5.54961632204e-12,-1.99950472846e-11,0.00500000002005,-1.11190276369e-11,-7.43987739843e-11,3.00927879693e-11,1.0,0.0,0.0,0.0,0.0,0.0,0.0,-4.97526045382e-10,5.87653990611e-10,-6.40609051507e-10,5.81224200332e-10,4.47269898763e-09,-1.44658441127e-09
314000000,DH_Ground,PONGBOT_LEG2_V1,0.0,0.0,0.0,0.0,0.0,0.0,1.0,5.57859314299e-12,-2.00172795006e-11,0.00500000001998,-1.11607929477e-11,-7.44742323269e-11,3.01305224905e-11,1.0,0.0,0.0,0.0,0.0,0.0,0.0,-7.52316884051e-10,8.86782297159e-10,-9.38274206382e-10,8.94125185421e-10,6.73098877628e-09,-2.18521110433e-09
315000000,DH_Ground,PONGBOT_LEG2_V1,0.0,0.0,0.0,0.0,0.0,0.0,1.0,5.52660694986e-12,-1.99460933881e-11,0.00500000002004,-1.10842333e-11,-7.42813612495e-11,3.0051769562e-11,1.0,0.0,0.0,0.0,0.0,0.0,0.0,-6.27251487732e-10,7.39833092953e-10,-7.77294624353e-10,7.50541596362e-10,5.60908961108e-09,-1.82248501703e-09
316000000,DH_Ground,PONGBOT_LEG2_V1,0.0,0.0,0.0,0.0,0.0,0.0,1.0,5.16844900211e-12,-1.95153893046e-11,0.00500000001965,-1.08476270657e-11,-7.26954120975e-11,2.95290154102e-11,1.0,0.0,0.0,0.0,0.0,0.0,0.0,-4.81540804926e-10,5.68941658356e-10,-6.42955556026e-10,5.49262931263e-10,4.34674872291e-09,-1.40033835274e-09
317000000,DH_Ground,PONGBOT_LEG2_V1,0.0,0.0,0.0,0.0,0.0,0.0,1.0,5.19051468473e-12,-1.95293989314e-11,0.00500000001953,-1.08961450159e-11,-7.27257235232e-11,2.95565383027e-11,1.0,0.0,0.0,0.0,0.0,0.0,0.0,-7.22185158157e-10,8.51454069836e-10,-9.23243752812e-10,8.45121844039e-10,6.47919024635e-09,-2.09794513861e-09
318000000,DH_Ground,PONGBOT_LEG2_V1,0.0,0.0,0.0,0.0,0.0,0.0,1.0,5.13591946749e-12,-1.94553748112e-11,0.00500000001959,-1.08194443792e-11,-7.25199234894e-11,2.94740953771e-11,1.0,0.0,0.0,0.0,0.0,0.0,0.0,-6.0418954719e-10,7.12771550648e-10,-7.64736364942e-10,7.13729399345e-10,5.41533440517e-09,-1.75566599254e-09
319000000,DH_Ground,PONGBOT_LEG2_V1,0.0,0.0,0.0,0.0,0.0,0.0,1.0,4.76640948932e-12,-1.90116394849e-11,0.00500000001918,-1.05751753032e-11,-7.08851568681e-11,2.89350079641e-11,1.0,0.0,0.0,0.0,0.0,0.0,0.0,-4.72345530996e-10,5.5814265371e-10,-6.43471599034e-10,5.31515267671e-10,4.27322900365e-09,-1.37369286383e-09
320000000,DH_Ground,PONGBOT_LEG2_V1,0.0,0.0,0.0,0.0,0.0,0.0,1.0,4.78034278828e-12,-1.90159207825e-11,0.005000000019,-1.06383141839e-11,-7.08541994914e-11,2.89506162846e-11,1.0,0.0,0.0,0.0,0.0,0.0,0.0,-6.93261008987e-10,8.17497521814e-10,-9.02150074772e-10,8.02053475123e-10,6.23221756e-09,-2.01411457535e-09
321000000,DH_Ground,PONGBOT_LEG2_V1,0.0,0.0,0.0,0.0,0.0,0.0,1.0,4.42945680135e-12,-1.8594563389e-11,0.00500000001866,-1.03931269193e-11,-6.93188205332e-11,2.8438802507e-11,1.0,0.0,0.0,0.0,0.0,0.0,0.0,-4.51079453471e-10,5.3294823441e-10,-5.90905166475e-10,5.22461589376e-10,4.06180280692e-09,-1.31173223889e-09
322000000,DH_Ground,PONGBOT_LEG2_V1,0.0,0.0,0.0,0.0,0.0,0.0,1.0,4.45291026274e-12,-1.86096207888e-11,0.00500000001841,-1.04844311186e-11,-6.93007489477e-11,2.84679140055e-11,1.0,0.0,0.0,0.0,0.0,0.0,0.0,-6.56675183119e-10,7.74370545311e-10,-8.40374136811e-10,7.68662732488e-10,5.89228087342e-09,-1.90781899375e-09
323000000,DH_Ground,PONGBOT_LEG2_V1,0.0,0.0,0.0,0.0,0.0,0.0,1.0,4.42834657832e-12,-1.85712209499e-11,0.00500000001849,-1.04262083604e-11,-6.92287250671e-11,2.84291362547e-11,1.0,0.0,0.0,0.0,0.0,0.0,0.0,-5.58390652693e-10,6.58652429218e-10,-6.74093152697e-10,6.80193222217e-10,4.97854073293e-09,-1.62242671399e-09
324000000,DH_Ground,PONGBOT_LEG2_V1,0.0,0.0,0.0,0.0,0.0,0.0,1.0,4.05550593108e-12,-1.81244533271e-11,0.00500000001815,-1.01593172552e-11,-6.76070805713e-11,2.78856173785e-11,1.0,0.0,0.0,0.0,0.0,0.0,0.0,-4.69931962502e-10,5.54974999097e-10,-6.0457605551e-10,5.51076718047e-10,4.22129864423e-09,-1.36624541959e-09
325000000,DH_Ground,PONGBOT_LEG2_V1,0.0,0.0,0.0,0.0,0.0,0.0,1.0,4.03296840368e-12,-1.80853595988e-11,0.00500000001778,-1.02444834743e-11,-6.7356769742e-11,2.78479293505e-11,1.0,0.0,0.0,0.0,0.0,0.0,0.0,-6.44296826012e-10,7.59765420836e-10,-8.24750461653e-10,7.54384321661e-10,5.78088460002e-09,-1.8718462714e-09
326000000,DH_Ground,PONGBOT_LEG2_V1,0.0,0.0,0.0,0.0,0.0,0.0,1.0,3.69279606893e-12,-1.76775330485e-11,0.00500000001753,-9.97961493229e-12,-6.59041341014e-11,2.73520866607e-11,1.0,0.0,0.0,0.0,0.0,0.0,0.0,-4.48947156863e-10,5.30012161606e-10,-5.3630825983e-10,5.51932076047e-10,3.99976589856e-09,-1.30496032194e-09
327000000,DH_Ground,PONGBOT_LEG2_V1,0.0,0.0,0.0,0.0,0.0,0.0,1.0,3.62879171156e-12,-1.75899225741e-11,0.0050000000171,-1.00415659912e-11,-6.54674705592e-11,2.72543239149e-11,1.0,0.0,0.0,0.0,0.0,0.0,0.0,-6.08916436814e-10,7.17980090439e-10,-7.52429593316e-10,7.29700705594e-10,5.44211998515e-09,-1.76894067232e-09
328000000,DH_Ground,PONGBOT_LEG2_V1,0.0,0.0,0.0,0.0,0.0,0.0,1.0,3.6362579614e-12,-1.75888539844e-11,0.00500000001713,-1.00344599922e-11,-6.5496757264e-11,2.72617278146e-11,1.0,0.0,0.0,0.0,0.0,0.0,0.0,-5.19580751053e-10,6.12656461968e-10,-5.80001140848e-10,6.62530228791e-10,4.59406925104e-09,-1.50933362892e-09
329000000,DH_Ground,PONGBOT_LEG2_V1,0.0,0.0,0.0,0.0,0.0,0.0,1.0,3.30008242955e-12,-1.71862732379e-11,0.00500000001694,-9.75595765591e-12,-6.40832776949e-11,2.67719113809e-11,1.0,0.0,0.0,0.0,0.0,0.0,0.0,-4.8140859916e-10,5.6789193155e-10,-5.45905683578e-10,6.09675030555e-10,4.26352114862e-09,-1.39874811217e-09
330000000,DH_Ground,PONGBOT_LEG2_V1,0.0,0.0,0.0,0.0,0.0,0.0,1.0,3.11398129504e-12,-1.6956443194e-11,0.00500000001646,-9.71493004602e-12,-6.31433281464e-11,2.64977380206e-11,1.0,0.0,0.0,0.0,0.0,0.0,0.0,-6.03577931507e-10,7.11554819583e-10,-7.3114544079e-10,7.32724403482e-10,5.38171906403e-09,-1.75325443717e-09
331000000,DH_Ground,PONGBOT_LEG2_V1,0.0,0.0,0.0,0.0,0.0,0.0,1.0,2.87259105392e-12,-1.66654814948e-11,0.00500000001641,-9.48878239265e-12,-6.21582939326e-11,2.61455325889e-11,1.0,0.0,0.0,0.0,0.0,0.0,0.0,-4.41337377349e-10,5.20726177062e-10,-4.95013737964e-10,5.63418186195e-10,3.90381831426e-09,-1.28243249422e-09
332000000,DH_Ground,PONGBOT_LEG2_V1,0.0,0.0,0.0,0.0,0.0,0.0,1.0,2.59212096232e-12,-1.63266761222e-11,0.00500000001601,-9.3332537377e-12,-6.08755014648e-11,2.57355087084e-11,1.0,0.0,0.0,0.0,0.0,0.0,0.0,-5.66153753627e-10,6.67539481961e-10,-6.88042463494e-10,6.86929792605e-10,5.04925778432e-09,-1.64466985221e-09
333000000,DH_Ground,PONGBOT_LEG2_V1,0.0,0.0,0.0,0.0,0.0,0.0,1.0,2.51271226048e-12,-1.62223220967e-11,0.00500000001566,-9.35500189809e-12,-6.04122540897e-11,2.56160191523e-11,1.0,0.0,0.0,0.0,0.0,0.0,0.0,-4.6506232529e-10,5.48693250126e-10,-5.56791216341e-10,5.72663794482e-10,4.1396826684e-09,-1.35139269117e-09
334000000,DH_Ground,PONGBOT_LEG2_V1,0.0,0.0,0.0,0.0,0.0,0.0,1.0,2.340933003e-12,-1.60132393456e-11,0.00500000001568,-9.17511371492e-12,-5.97315988997e-11,2.53647634781e-11,1.0,0.0,0.0,0.0,0.0,0.0,0.0,-4.61637543373e-10,5.44372814055e-10,-5.05291913356e-10,5.9800018851e-10,4.07034101031e-09,-1.34103776111e-09
335000000,DH_Ground,PONGBOT_LEG2_V1,0.0,0.0,0.0,0.0,0.0,0.0,1.0,2.055910997e-12,-1.56690840858e-11,0.00500000001523,-9.02938135906e-12,-5.84125526509e-11,2.49480500653e-11,1.0,0.0,0.0,0.0,0.0,0.0,0.0,-5.3220845989e-10,6.27447710443e-10,-6.26455035904e-10,6.60302669344e-10,4.72781755853e-09,-1.54594347258e-09
336000000,DH_Ground,PONGBOT_LEG2_V1,0.0,0.0,0.0,0.0,0.0,0.0,1.0,1.73530634306e-12,-1.52860710201e-11,0.0050000000151,-8.74826795601e-12,-5.70862508847e-11,2.44814020101e-11,1.0,0.0,0.0,0.0,0.0,0.0,0.0,-4.37364221733e-10,5.15878757271e-10,-4.92133412038e-10,5.59682317276e-10,3.86577681423e-09,-1.27069470135e-09
337000000,DH_Ground,PONGBOT_LEG2_V1,0.0,0.0,0.0,0.0,0.0,0.0,1.0,1.52125534392e-12,-1.50247037034e-11,0.00500000001463,-8.67694488952e-12,-5.60414644249e-11,2.41671939587e-11,1.0,0.0,0.0,0.0,0.0,0.0,0.0,-5.08937339003e-10,6.0018162352e-10,-6.26968337118e-10,6.15496797484e-10,4.54214079255e-09,-1.47858538149e-09
338000000,DH_Ground,PONGBOT_LEG2_V1,0.0,0.0,0.0,0.0,0.0,0.0,1.0,1.40057410114e-12,-1.48739978667e-11,0.00500000001441,-8.61719725917e-12,-5.54708988509e-11,2.39889442077e-11,1.0,0.0,0.0,0.0,0.0,0.0,0.0,-4.58568789055e-10,5.40750712608e-10,-5.26100268419e-10,5.79653032467e-10,4.06112278167e-09,-1.33215378499e-09
339000000,DH_Ground,PONGBOT_LEG2_V1,0.0,0.0,0.0,0.0,0.0,0.0,1.0,1.0234035841e-12,-1.44241146804e-11,0.00500000001409,-8.33891996889e-12,-5.38450358923e-11,2.3439908293e-11,1.0,0.0,0.0,0.0,0.0,0.0,0.0,-4.6122400206e-10,5.43758584158e-10,-5.14211541205e-10,5.92243861428e-10,4.07219132029e-09,-1.33969868553e-09
340000000,DH_Ground,PONGBOT_LEG2_V1,0.0,0.0,0.0,0.0,0.0,0.0,1.0,9.10355124617e-13,-1.42827208394e-11,0.00500000001391,-8.27947826652e-12,-5.3314497127e-11,2.32728480325e-11,1.0,0.0,0.0,0.0,0.0,0.0,0.0,-1.96825533952e-10,2.3387295421e-10,-3.14822763624e-10,2.01470980651e-10,1.81497265472e-09,-5.73999220041e-10
341000000,DH_Ground,PONGBOT_LEG2_V1,0.0,0.0,0.0,0.0,0.0,0.0,1.0,6.78124223441e-13,-1.40024519757e-11,0.00500000001367,-8.11890921444e-12,-5.22936038984e-11,2.29336398041e-11,1.0,0.0,0.0,0.0,0.0,0.0,0.0,-2.92747718426e-10,3.46312992438e-10,-4.0068675771e-10,3.37537581827e-10,2.64103504314e-09,-8.51822146815e-10
342000000,DH_Ground,PONGBOT_LEG2_V1,0.0,0.0,0.0,0.0,0.0,0.0,1.0,3.69898556229e-13,-1.36328726086e-11,0.00500000001331,-7.92098690537e-12,-5.09233292674e-11,2.24840397245e-11,1.0,0.0,0.0,0.0,0.0,0.0,0.0,-3.44456183995e-10,4.06984176673e-10,-4.60559125176e-10,4.02013793598e-10,3.09783414358e-09,-1.00167814392e-09
343000000,DH_Ground,PONGBOT_LEG2_V1,0.0,0.0,0.0,0.0,0.0,0.0,1.0,2.93653990013e-14,-1.32255942309e-11,0.0050000000129,-7.70782349473e-12,-4.94046804623e-11,2.19877580679e-11,1.0,0.0,0.0,0.0,0.0,0.0,0.0,-3.41407624108e-10,4.03408046971e-10,-4.64344963779e-10,3.92781822826e-10,3.07769720477e-09,-9.92857397306e-10
344000000,DH_Ground,PONGBOT_LEG2_V1,0.0,0.0,0.0,0.0,0.0,0.0,1.0,-1.93012272831e-13,-1.29567814811e-11,0.0050000000126,-7.57720156085e-12,-4.83966052975e-11,2.16626091846e-11,1.0,0.0,0.0,0.0,0.0,0.0,0.0,-2.76595283264e-10,3.27249941296e-10,-3.88045869531e-10,3.13018939675e-10,2.50296712003e-09,-8.04889981577e-10
345000000,DH_Ground,PONGBOT_LEG2_V1,0.0,0.0,0.0,0.0,0.0,0.0,1.0,-5.32934807396e-13,-1.25513280325e-11,0.00500000001229,-7.33218830248e-12,-4.69239553928e-11,2.11677873952e-11,1.0,0.0,0.0,0.0,0.0,0.0,0.0,-2.63225660728e-10,3.11487754499e-10,-3.66258690921e-10,2.99423760443e-10,2.3804905405e-09,-7.66047083951e-10
346000000,DH_Ground,PONGBOT_LEG2_V1,0.0,0.0,0.0,0.0,0.0,0.0,1.0,-9.62868673682e-13,-1.20400217574e-11,0.00500000001182,-7.05158050105e-12,-4.50266693435e-11,2.05422620999e-11,1.0,0.0,0.0,0.0,0.0,0.0,0.0,-2.222800669e-10,2.63492262444e-10,-3.39847569051e-10,2.34800118162e-10,2.03601814308e-09,-6.4747177222e-10
347000000,DH_Ground,PONGBOT_LEG2_V1,0.0,0.0,0.0,0.0,0.0,0.0,1.0,-1.36868294476e-12,-1.15571302528e-11,0.00500000001135,-6.79409525427e-12,-4.32259688569e-11,1.99517332945e-11,1.0,0.0,0.0,0.0,0.0,0.0,0.0,-1.66472500681e-10,1.97948049142e-10,-2.82632206254e-10,1.6048287406e-10,1.54841634008e-09,-4.8567239746e-10
348000000,DH_Ground,PONGBOT_LEG2_V1,0.0,0.0,0.0,0.0,0.0,0.0,1.0,-1.73905334577e-12,-1.11158582339e-11,0.00500000001091,-6.56219861295e-12,-4.15774063042e-11,1.941252144e-11,1.0,0.0,0.0,0.0,0.0,0.0,0.0,-1.22254425978e-10,1.45979159999e-10,-2.33192969727e-10,1.04252874303e-10,1.15849403204e-09,-3.57424375917e-10
349000000,DH_Ground,PONGBOT_LEG2_V1,0.0,0.0,0.0,0.0,0.0,0.0,1.0,-2.07583950029e-12,-1.07141170935e-11,0.0050000000105,-6.3533090159e-12,-4.00748448574e-11,1.89220098195e-11,1.0,0.0,0.0,0.0,0.0,0.0,0.0,-8.94911456281e-11,1.0744768041e-10,-1.94327470838e-10,6.40403513727e-11,8.67584229374e-10,-2.62365835552e-10
350000000,DH_Ground,PONGBOT_LEG2_V1,0.0,0.0,0.0,0.0,0.0,0.0,1.0,-2.38242758854e-12,-1.03480765623e-11,0.00500000001012,-6.16440496641e-12,-3.87050935403e-11,1.84754640699e-11,1.0,0.0,0.0,0.0,0.0,0.0,0.0,-6.62202551909e-11,8.00559253427e-11,-1.64778953747e-10,3.67188717891e-11,6.59231907264e-10,-1.94816951319e-10
351000000,DH_Ground,PONGBOT_LEG2_V1,0.0,0.0,0.0,0.0,0.0,0.0,1.0,-2.661010301e-12,-1.00148847548e-11,0.00500000000978,-5.9933646044e-12,-3.74582542839e-11,1.80693844538e-11,1.0,0.0,0.0,0.0,0.0,0.0,0.0,-5.01625481735e-11,6.11326617995e-11,-1.42741271912e-10,1.89122456809e-11,5.13996290794e-10,-1.48177287578e-10
352000000,DH_Ground,PONGBOT_LEG2_V1,0.0,0.0,0.0,0.0,0.0,0.0,1.0,-2.91469626212e-12,-9.71105834635e-12,0.00500000000946,-5.83791067808e-12,-3.6321775926e-11,1.76994786149e-11,1.0,0.0,0.0,0.0,0.0,0.0,0.0,-4.0357164115e-11,4.95517532975e-11,-1.27453173654e-10,9.18021752525e-12,4.23701653997e-10,-1.19664282146e-10
353000000,DH_Ground,PONGBOT_LEG2_V1,0.0,0.0,0.0,0.0,0.0,0.0,1.0,-3.14615000718e-12,-9.4334956513e-12,0.00500000000917,-5.69616024281e-12,-3.52841893573e-11,1.73618928183e-11,1.0,0.0,0.0,0.0,0.0,0.0,0.0,-3.57202966987e-11,4.40424379538e-11,-1.18012029815e-10,5.94317102339e-12,3.79053127197e-10,-1.06138527769e-10
354000000,DH_Ground,PONGBOT_LEG2_V1,0.0,0.0,0.0,0.0,0.0,0.0,1.0,-3.35678707053e-12,-9.1804619462e-12,0.0050000000089,-5.56709563656e-12,-3.43391906243e-11,1.70545165122e-11,1.0,0.0,0.0,0.0,0.0,0.0,0.0,-3.58681132065e-11,4.41542947111e-11,-1.14079591538e-10,8.65931576866e-12,3.76745153167e-10,-1.06487760648e-10
355000000,DH_Ground,PONGBOT_LEG2_V1,0.0,0.0,0.0,0.0,0.0,0.0,1.0,-3.54660745217e-12,-8.95188784211e-12,0.00500000000866,-5.45076540756e-12,-3.34864593176e-11,1.67772803076e-11,1.0,0.0,0.0,0.0,0.0,0.0,0.0,-4.01904490621e-11,4.91725346433e-11,-1.15238708302e-10,1.63815207881e-11,4.11629429389e-10,-1.18945472356e-10
356000000,DH_Ground,PONGBOT_LEG2_V1,0.0,0.0,0.0,0.0,0.0,0.0,1.0,-3.71494501827e-12,-8.74864763967e-12,0.00500000000845,-5.34777058971e-12,-3.27290605448e-11,1.6531251416e-11,1.0,0.0,0.0,0.0,0.0,0.0,0.0,-4.82058573335e-11,5.85315499735e-11,-1.20894623786e-10,2.85451708294e-11,4.7940101918e-10,-1.4211544508e-10
357000000,DH_Ground,PONGBOT_LEG2_V1,0.0,0.0,0.0,0.0,0.0,0.0,1.0,-3.86207732461e-12,-8.5703596997e-12,0.00500000000826,-5.25853592308e-12,-3.20649105986e-11,1.63160038485e-11,1.0,0.0,0.0,0.0,0.0,0.0,0.0,-5.97990460219e-11,7.20946882642e-11,-1.30682969626e-10,4.5154516126e-11,5.78851645516e-10,-1.75661585485e-10
358000000,DH_Ground,PONGBOT_LEG2_V1,0.0,0.0,0.0,0.0,0.0,0.0,1.0,-3.99005828378e-12,-8.41444275368e-12,0.00500000000807,-5.1857388868e-12,-3.14792557559e-11,1.61283846017e-11,1.0,0.0,0.0,0.0,0.0,0.0,0.0,-7.57457467203e-11,9.07695629871e-11,-1.45031373666e-10,6.74930636397e-11,7.16414981939e-10,-2.21828184561e-10
359000000,DH_Ground,PONGBOT_LEG2_V1,0.0,0.0,0.0,0.0,0.0,0.0,1.0,-4.12997414045e-12,-8.24469659211e-12,0.00500000000787,-5.10610115957e-12,-3.08407213604e-11,1.59236281108e-11,1.0,0.0,0.0,0.0,0.0,0.0,0.0,-9.64036025094e-11,1.14959598611e-10,-1.6160016766e-10,9.76693930308e-11,8.93054213706e-10,-2.81628457655e-10
360000000,DH_Ground,PONGBOT_LEG2_V1,0.0,0.0,0.0,0.0,0.0,0.0,1.0,-4.27308188833e-12,-8.07125893898e-12,0.00500000000768,-5.02199566981e-12,-3.01910923383e-11,1.57141924495e-11,1.0,0.0,0.0,0.0,0.0,0.0,0.0,-1.15027441813e-10,1.36756916258e-10,-1.75427634524e-10,1.2560018541e-10,1.05132251419e-09,-3.35526002103e-10
361000000,DH_Ground,PONGBOT_LEG2_V1,0.0,0.0,0.0,0.0,0.0,0.0,1.0,-4.41771619286e-12,-7.89622534025e-12,0.00500000000748,-4.93504340141e-12,-2.95377146218e-11,1.55026930348e-11,1.0,0.0,0.0,0.0,0.0,0.0,0.0,-1.33588190341e-10,1.58488076311e-10,-1.90550937791e-10,1.52579977436e-10,1.21017456445e-09,-3.89252125011e-10
362000000,DH_Ground,PONGBOT_LEG2_V1,0.0,0.0,0.0,0.0,0.0,0.0,1.0,-4.55158133406e-12,-7.73379277286e-12,0.0050000000073,-4.8563181579e-12,-2.89297084223e-11,1.5306705237e-11,1.0,0.0,0.0,0.0,0.0,0.0,0.0,-1.5194060255e-10,1.7998100357e-10,-2.0652564292e-10,1.78620500364e-10,1.3680814072e-09,-4.4238349675e-10
363000000,DH_Ground,PONGBOT_LEG2_V1,0.0,0.0,0.0,0.0,0.0,0.0,1.0,-4.8960835386e-12,-7.32487681621e-12,0.00500000000691,-4.63339481001e-12,-2.74084534086e-11,1.48057417605e-11,1.0,0.0,0.0,0.0,0.0,0.0,0.0,-1.72267422161e-10,2.03787175395e-10,-2.23532034778e-10,2.07793768702e-10,1.54256401017e-09,-5.01231214754e-10
364000000,DH_Ground,PONGBOT_LEG2_V1,0.0,0.0,0.0,0.0,0.0,0.0,1.0,-5.27863863731e-12,-6.87108703268e-12,0.00500000000642,-4.40882223432e-12,-2.56904492714e-11,1.42494512852e-11,1.0,0.0,0.0,0.0,0.0,0.0,0.0,-1.48531753207e-10,1.75878330334e-10,-1.98018481407e-10,1.76822888866e-10,1.33413746092e-09,-4.32376273485e-10
365000000,DH_Ground,PONGBOT_LEG2_V1,0.0,0.0,0.0,0.0,0.0,0.0,1.0,-5.4415361106e-12,-6.67511185215e-12,0.0050000000062,-4.31331475062e-12,-2.49534931772e-11,1.40115821876e-11,1.0,0.0,0.0,0.0,0.0,0.0,0.0,-1.20746632191e-10,1.43120295629e-10,-1.53326183495e-10,1.49976483284e-10,1.07778282658e-09,-3.51647426165e-10
366000000,DH_Ground,PONGBOT_LEG2_V1,0.0,0.0,0.0,0.0,0.0,0.0,1.0,-5.46102052468e-12,-6.64742566547e-12,0.00500000000616,-4.30291530726e-12,-2.48560021768e-11,1.3981623e-11,1.0,0.0,0.0,0.0,0.0,0.0,0.0,-1.49195206199e-10,1.76386292752e-10,-1.6819270509e-10,1.96588255417e-10,1.31437527993e-09,-4.33932360075e-10
367000000,DH_Ground,PONGBOT_LEG2_V1,0.0,0.0,0.0,0.0,0.0,0.0,1.0,-5.73013858585e-12,-6.32729285632e-12,0.00500000000583,-4.13617099535e-12,-2.36570910067e-11,1.35900731195e-11,1.0,0.0,0.0,0.0,0.0,0.0,0.0,-2.47334318578e-10,2.91527119967e-10,-2.69385959456e-10,3.26867089947e-10,2.17144571694e-09,-7.18319095873e-10
368000000,DH_Ground,PONGBOT_LEG2_V1,0.0,0.0,0.0,0.0,0.0,0.0,1.0,-6.39363562094e-12,-5.54423174037e-12,0.00500000000498,-3.74267423933e-12,-2.06902079101e-11,1.26268079956e-11,1.0,0.0,0.0,0.0,0.0,0.0,0.0,-2.62519685795e-10,3.09272588514e-10,-2.80020987365e-10,3.49925915204e-10,2.29992935384e-09,-7.62232395104e-10
369000000,DH_Ground,PONGBOT_LEG2_V1,0.0,0.0,0.0,0.0,0.0,0.0,1.0,-7.45734030083e-12,-4.29176139072e-12,0.00500000000355,-3.13572086118e-12,-1.59067040467e-11,1.10827956203e-11,1.0,0.0,0.0,0.0,0.0,0.0,0.0,-1.69366112879e-10,1.99704495766e-10,-1.55269026854e-10,2.43529094069e-10,1.46278343095e-09,-4.91922807502e-10
370000000,DH_Ground,PONGBOT_LEG2_V1,0.0,0.0,0.0,0.0,0.0,0.0,1.0,-8.32631186221e-12,-3.26844107335e-12,0.00500000000232,-2.65471414401e-12,-1.1979712714e-11,9.8213026627e-12,1.0,0.0,0.0,0.0,0.0,0.0,0.0,1.9920002877e-11,-2.28161553948e-11,1.0383533038e-10,3.04857485045e-11,-2.41501954029e-10,5.69884664386e-11
371000000,DH_Ground,PONGBOT_LEG2_V1,0.0,0.0,0.0,0.0,0.0,0.0,1.0,-8.87590001497e-12,-2.62073696078e-12,0.00500000000158,-2.34200384126e-12,-9.50737183582e-12,9.02366811346e-12,1.0,0.0,0.0,0.0,0.0,0.0,0.0,1.66435628154e-10,-1.93661438804e-10,3.1616484296e-10,-1.24981403966e-10,-1.56153679589e-09,4.77903475717e-10
372000000,DH_Ground,PONGBOT_LEG2_V1,0.0,0.0,0.0,0.0,0.0,0.0,1.0,-9.19320175541e-12,-2.24779223013e-12,0.00500000000126,-2.12606200727e-12,-8.12613560415e-12,8.56353465418e-12,1.0,0.0,0.0,0.0,0.0,0.0,0.0,2.29040942059e-10,-2.66646621858e-10,4.12970442697e-10,-1.87956541314e-10,-2.12979643358e-09,6.57768692263e-10
373000000,DH_Ground,PONGBOT_LEG2_V1,0.0,0.0,0.0,0.0,0.0,0.0,1.0,-8.90232332296e-12,-2.5839469453e-12,0.00500000000168,-2.27936004403e-12,-9.43260991527e-12,8.98053470001e-12,1.0,0.0,0.0,0.0,0.0,0.0,0.0,-1.08953689127e-10,1.27741464471e-10,2.06397818061e-11,2.28580713684e-10,8.44944693841e-10,-3.15411590057e-10
374000000,DH_Ground,PONGBOT_LEG2_V1,0.0,0.0,0.0,0.0,0.0,0.0,1.0,-8.74045280597e-12,-2.77011052985e-12,0.00500000000194,-2.3549638657e-12,-1.01707392411e-11,9.21245876404e-12,1.0,0.0,0.0,0.0,0.0,0.0,0.0,-1.82954948364e-10,2.14734459414e-10,-7.76480685314e-11,3.14181959143e-10,1.50842842384e-09,-5.30087000253e-10
375000000,DH_Ground,PONGBOT_LEG2_V1,0.0,0.0,0.0,0.0,0.0,0.0,1.0,-8.67914073943e-12,-2.8392566076e-12,0.00500000000209,-2.36907474491e-12,-1.04666547389e-11,9.30001016851e-12,1.0,0.0,0.0,0.0,0.0,0.0,0.0,-2.30430745794e-10,2.70560480531e-10,-1.43734429265e-10,3.67124245845e-10,1.93669567818e-09,-6.67835963449e-10
376000000,DH_Ground,PONGBOT_LEG2_V1,0.0,0.0,0.0,0.0,0.0,0.0,1.0,-8.71511196543e-12,-2.79482686993e-12,0.00500000000213,-2.31968709018e-12,-1.03381350447e-11,9.24722931809e-12,1.0,0.0,0.0,0.0,0.0,0.0,0.0,-2.76563289111e-10,3.24774409324e-10,-2.04898633509e-10,4.20343938086e-10,2.35036269729e-09,-8.01644457278e-10
377000000,DH_Ground,PONGBOT_LEG2_V1,0.0,0.0,0.0,0.0,0.0,0.0,1.0,-8.82385831069e-12,-2.66527772075e-12,0.00500000000209,-2.22079187646e-12,-9.8938393197e-12,9.08913473754e-12,1.0,0.0,0.0,0.0,0.0,0.0,0.0,-3.1496741387e-10,3.69902978156e-10,-2.57583490279e-10,4.63542639043e-10,2.69607517374e-09,-9.13035461292e-10
378000000,DH_Ground,PONGBOT_LEG2_V1,0.0,0.0,0.0,0.0,0.0,0.0,1.0,-8.98212060285e-12,-2.47767084627e-12,0.00500000000201,-2.08921109895e-12,-9.23274099404e-12,8.85918821645e-12,1.0,0.0,0.0,0.0,0.0,0.0,0.0,-3.41287783966e-10,4.00850395192e-10,-2.99082713029e-10,4.89862565501e-10,2.93723955288e-09,-9.89407388527e-10
379000000,DH_Ground,PONGBOT_LEG2_V1,0.0,0.0,0.0,0.0,0.0,0.0,1.0,-9.17421694169e-12,-2.25054003211e-12,0.00500000000188,-1.93878526548e-12,-8.41974976967e-12,8.58032909485e-12,1.0,0.0,0.0,0.0,0.0,0.0,0.0,-3.57841612745e-10,4.20334511132e-10,-3.31024726442e-10,5.02860093351e-10,3.09350839336e-09,-1.03747303197e-09
380000000,DH_Ground,PONGBOT_LEG2_V1,0.0,0.0,0.0,0.0,0.0,0.0,1.0,-9.39132105415e-12,-1.99411320789e-12,0.00500000000171,-1.77807133464e-12,-7.48958982706e-12,8.26523492883e-12,1.0,0.0,0.0,0.0,0.0,0.0,0.0,-3.70589570597e-10,4.31080403872e-10,-3.54505278674e-10,5.06661127049e-10,3.18925957059e-09,-1.06324322397e-09
381000000,DH_Ground,PONGBOT_LEG2_V1,0.0,0.0,0.0,0.0,0.0,0.0,1.0,-9.623246644e-12,-1.71435782237e-12,0.00500000000149,-1.61125330568e-12,-6.46914024953e-12,7.92174955465e-12,1.0,0.0,0.0,0.0,0.0,0.0,0.0,-3.74026058343e-10,4.35109695394e-10,-3.67410011924e-10,5.05468783073e-10,3.22638440643e-09,-1.07314525052e-09
382000000,DH_Ground,PONGBOT_LEG2_V1,0.0,0.0,0.0,0.0,0.0,0.0,1.0,-9.87068760061e-12,-1.41508332829e-12,0.00500000000123,-1.43984021541e-12,-5.37018505873e-12,7.55479806914e-12,1.0,0.0,0.0,0.0,0.0,0.0,0.0,-3.74279820448e-10,4.36961124374e-10,-3.59521025532e-10,5.12100341999e-10,3.22392738177e-09,-1.07377856338e-09
383000000,DH_Ground,PONGBOT_LEG2_V1,0.0,0.0,0.0,0.0,0.0,0.0,1.0,-1.01291197652e-11,-1.10298575828e-12,0.00500000000095,-1.2656951865e-12,-4.21707418447e-12,7.17174007853e-12,1.0,0.0,0.0,0.0,0.0,0.0,0.0,-3.72986072749e-10,4.35426011513e-10,-3.56199211545e-10,5.11757039955e-10,3.21045729088e-09,-1.07003014034e-09
384000000,DH_Ground,PONGBOT_LEG2_V1,0.0,0.0,0.0,0.0,0.0,0.0,1.0,-1.03933806006e-11,-7.84636244866e-13,0.00500000000065,-1.09042098845e-12,-3.03629838765e-12,6.78058529426e-12,1.0,0.0,0.0,0.0,0.0,0.0,0.0,-3.70966921274e-10,4.33062741875e-10,-3.52802967995e-10,5.09783580199e-10,3.19204247332e-09,-1.0642285795e-09
385000000,DH_Ground,PONGBOT_LEG2_V1,0.0,0.0,0.0,0.0,0.0,0.0,1.0,-1.06580577697e-11,-4.68132477227e-13,0.00500000000035,-9.16526946623e-13,-1.85561358128e-12,6.3895650987e-12,1.0,0.0,0.0,0.0,0.0,0.0,0.0,-3.68805708956e-10,4.30462200045e-10,-3.47943175879e-10,5.08297434896e-10,3.17129863464e-09,-1.0580217043e-09
386000000,DH_Ground,PONGBOT_LEG2_V1,0.0,0.0,0.0,0.0,0.0,0.0,1.0,-1.09194597808e-11,-1.54876111935e-13,0.00500000000004,-7.51091566086e-13,-6.81055676018e-13,6.00337003465e-12,1.0,0.0,0.0,0.0,0.0,0.0,0.0,-3.6700852741e-10,4.28352102273e-10,-3.43772977822e-10,5.07094927457e-10,3.15408154781e-09,-1.05284598509e-09
387000000,DH_Ground,PONGBOT_LEG2_V1,0.0,0.0,0.0,0.0,0.0,0.0,1.0,-1.11768094779e-11,1.52995671687e-13,0.00499999999973,-5.87292429994e-13,4.72667569788e-13,5.62346540039e-12,1.0,0.0,0.0,0.0,0.0,0.0,0.0,-3.12233040959e-10,3.64239925421e-10,-4.30957428657e-10,3.50141733912e-10,2.78768959152e-09,-8.9670092696e-10
388000000,DH_Ground,PONGBOT_LEG2_V1,0.0,0.0,0.0,0.0,0.0,0.0,1.0,-1.14855347455e-11,5.2176318821e-13,0.00499999999941,-3.76813168141e-13,1.83701560465e-12,5.16836595743e-12,1.0,0.0,0.0,0.0,0.0,0.0,0.0,-3.02882876562e-10,3.52915520432e-10,-2.82633954284e-10,4.21450717318e-10,2.59784480071e-09,-8.69068485918e-10
389000000,DH_Ground,PONGBOT_LEG2_V1,0.0,0.0,0.0,0.0,0.0,0.0,1.0,-1.1794981658e-11,8.92119711438e-13,0.00499999999897,-2.01111520327e-13,3.25180310528e-12,4.71137224288e-12,1.0,0.0,0.0,0.0,0.0,0.0,0.0,-3.21459071796e-10,3.74126556846e-10,-1.54020052018e-10,5.32508847328e-10,2.64670057513e-09,-9.2155852144e-10
390000000,DH_Ground,PONGBOT_LEG2_V1,0.0,0.0,0.0,0.0,0.0,0.0,1.0,-1.19339815807e-11,1.05825764818e-12,0.00499999999884,-1.02219422755e-13,3.86184471174e-12,4.5061121255e-12,1.0,0.0,0.0,0.0,0.0,0.0,0.0,-3.7336601984e-10,4.34468309593e-10,-4.62125493359e-10,4.46655882624e-10,3.29414365865e-09,-1.07172368808e-09
391000000,DH_Ground,PONGBOT_LEG2_V1,0.0,0.0,0.0,0.0,0.0,0.0,1.0,-1.20746745935e-11,1.22640786415e-12,0.0049999999987,-3.30215108358e-15,4.48083695824e-12,4.29832912874e-12,1.0,0.0,0.0,0.0,0.0,0.0,0.0,-2.51115593966e-10,2.92357439666e-10,-2.33645362832e-10,3.48149249555e-10,2.15473520455e-09,-7.20487569514e-10
392000000,DH_Ground,PONGBOT_LEG2_V1,0.0,0.0,0.0,0.0,0.0,0.0,1.0,-1.22037380201e-11,1.38049294218e-12,0.00499999999859,9.39038312255e-14,5.03975227007e-12,4.10791839871e-12,1.0,0.0,0.0,0.0,0.0,0.0,0.0,-2.98482894553e-10,3.46994100931e-10,-2.77601366099e-10,4.12585549685e-10,2.56100370347e-09,-8.56236598861e-10
393000000,DH_Ground,PONGBOT_LEG2_V1,0.0,0.0,0.0,0.0,0.0,0.0,1.0,-1.23586696432e-11,1.5655532426e-12,0.00499999999846,2.08329803446e-13,5.71324001974e-12,3.87952011559e-12,1.0,0.0,0.0,0.0,0.0,0.0,0.0,-3.57659647798e-10,4.15788998429e-10,-3.45037229766e-10,4.8620079025e-10,3.07912402338e-09,-1.02607521636e-09
394000000,DH_Ground,PONGBOT_LEG2_V1,0.0,0.0,0.0,0.0,0.0,0.0,1.0,-1.25297827669e-11,1.76984121802e-12,0.00499999999831,3.3164147339e-13,6.46053966984e-12,3.62739401484e-12,1.0,0.0,0.0,0.0,0.0,0.0,0.0,-3.96090352338e-10,4.53112394623e-10,-3.84344147079e-10,5.2564869595e-10,3.37577315493e-09,-1.11972331322e-09
395000000,DH_Ground,PONGBOT_LEG2_V1,0.0,0.0,0.0,0.0,0.0,0.0,1.0,-1.27090005186e-11,1.98378813376e-12,0.00499999999813,4.57907134419e-13,7.24683668973e-12,3.36334768285e-12,1.0,0.0,0.0,0.0,0.0,0.0,0.0,-4.14144918497e-10,4.73772301199e-10,-4.04330540183e-10,5.47822577888e-10,3.53190224001e-09,-1.17076768693e-09
396000000,DH_Ground,PONGBOT_LEG2_V1,0.0,0.0,0.0,0.0,0.0,0.0,1.0,-1.28786148412e-11,2.18594586876e-12,0.00499999999798,5.80562874318e-13,7.98640040631e-12,3.11356209453e-12,1.0,0.0,0.0,0.0,0.0,0.0,0.0,-4.30208795147e-10,4.92151009256e-10,-4.20743117874e-10,5.68392547279e-10,3.66972238329e-09,-1.21618126577e-09
397000000,DH_Ground,PONGBOT_LEG2_V1,0.0,0.0,0.0,0.0,0.0,0.0,1.0,-1.30594701719e-11,2.40117647987e-12,0.00499999999781,7.0960684225e-13,8.77633807299e-12,2.84741262596e-12,1.0,0.0,0.0,0.0,0.0,0.0,0.0,-4.54462934481e-10,5.19907375619e-10,-4.4849185618e-10,5.97733339371e-10,3.88003771904e-09,-1.28475489958e-09
398000000,DH_Ground,PONGBOT_LEG2_V1,0.0,0.0,0.0,0.0,0.0,0.0,1.0,-1.32592825608e-11,2.63503802111e-12,0.00499999999764,8.50606909511e-13,9.63608676186e-12,2.55860324617e-12,1.0,0.0,0.0,0.0,0.0,0.0,0.0,-4.79344744321e-10,5.48381047999e-10,-4.76693685078e-10,6.28081502795e-10,4.09549513716e-09,-1.35510237284e-09
399000000,DH_Ground,PONGBOT_LEG2_V1,0.0,0.0,0.0,0.0,0.0,0.0,1.0,-1.34799671425e-11,2.88739171461e-12,0.00499999999744,1.00293334734e-12,1.05686688109e-11,2.24676105477e-12,1.0,0.0,0.0,0.0,0.0,0.0,0.0,-5.02165326449e-10,5.74499024641e-10,-5.03900683791e-10,6.55117236052e-10,4.29412344348e-09,-1.41962470879e-09
400000000,DH_Ground,PONGBOT_LEG2_V1,0.0,0.0,0.0,0.0,0.0,0.0,1.0,-1.37155842239e-11,3.15689835384e-12,0.00499999999724,1.16550839716e-12,1.15647787118e-11,1.9137211529e-12,1.0,0.0,0.0,0.0,0.0,0.0,0.0,-5.22912290687e-10,5.98247549716e-10,-5.30282209451e-10,6.78717551352e-10,4.47596906084e-09,-1.47828724166e-09
401000000,DH_Ground,PONGBOT_LEG2_V1,0.0,0.0,0.0,0.0,0.0,0.0,1.0,-1.39651068487e-11,3.44231587679e-12,0.00499999999702,1.33729881823e-12,1.2620170501e-11,1.56102059085e-12,1.0,0.0,0.0,0.0,0.0,0.0,0.0,-5.0319533337e-10,5.75647687177e-10,-4.93002466421e-10,6.63579671603e-10,4.29377222801e-09,-1.42251313436e-09
402000000,DH_Ground,PONGBOT_LEG2_V1,0.0,0.0,0.0,0.0,0.0,0.0,1.0,-1.42345857324e-11,3.75052766621e-12,0.00499999999678,1.52204064764e-12,1.37608647141e-11,1.18013956793e-12,1.0,0.0,0.0,0.0,0.0,0.0,0.0,-5.31015050237e-10,6.0749081507e-10,-5.27875150571e-10,6.95609124782e-10,4.53711471721e-09,-1.50117287229e-09
403000000,DH_Ground,PONGBOT_LEG2_V1,0.0,0.0,0.0,0.0,0.0,0.0,1.0,-1.45279066555e-11,4.08605094204e-12,0.00499999999651,1.72189764577e-12,1.50041005628e-11,7.65543150939e-13,1.0,0.0,0.0,0.0,0.0,0.0,0.0,-5.75629512963e-10,6.58573691225e-10,-5.90257962382e-10,7.4303714051e-10,4.93242690508e-09,-1.62733222437e-09
404000000,DH_Ground,PONGBOT_LEG2_V1,0.0,0.0,0.0,0.0,0.0,0.0,1.0,-1.49237566749e-11,4.538897036e-12,0.00499999999613,1.98561804063e-12,1.66896440368e-11,2.05991459407e-13,1.0,0.0,0.0,0.0,0.0,0.0,0.0,-5.82099086801e-10,6.66077210286e-10,-6.40097472668e-10,7.25600775153e-10,5.02091082033e-09,-1.64570390751e-09
405000000,DH_Ground,PONGBOT_LEG2_V1,0.0,0.0,0.0,0.0,0.0,0.0,1.0,-1.520295001e-11,4.85821105567e-12,0.00499999999589,2.17811074427e-12,1.78699848276e-11,-1.88599593713e-13,1.0,0.0,0.0,0.0,0.0,0.0,0.0,-4.77582557192e-10,5.46400007025e-10,-4.91539574881e-10,6.15506872148e-10,4.09349767078e-09,-1.35015057916e-09
406000000,DH_Ground,PONGBOT_LEG2_V1,0.0,0.0,0.0,0.0,0.0,0.0,1.0,-1.4381634772e-11,3.90512622239e-12,0.0049999999967,1.62972247579e-12,1.43244823785e-11,9.89168006324e-13,1.0,0.0,0.0,0.0,0.0,0.0,0.0,6.7940607507e-10,-7.89801780717e-10,6.59804143646e-10,-9.14808612314e-10,-5.86010329262e-09,1.94910689582e-09
407000000,DH_Ground,PONGBOT_LEG2_V1,0.0,0.0,0.0,0.0,0.0,0.0,1.0,-1.31797073255e-11,2.51108855931e-12,0.00499999999798,8.51903408427e-13,9.10488115621e-12,2.71274064399e-12,1.0,0.0,0.0,0.0,0.0,0.0,0.0,1.01191148612e-09,-1.17653858016e-09,1.05784899158e-09,-1.31829074742e-09,-8.78552871295e-09,2.90332557599e-09
408000000,DH_Ground,PONGBOT_LEG2_V1,0.0,0.0,0.0,0.0,0.0,0.0,1.0,-1.24369403665e-11,1.65044367062e-12,0.00499999999875,3.67539956944e-13,5.88539156624e-12,3.77770655204e-12,1.0,0.0,0.0,0.0,0.0,0.0,0.0,5.59923159213e-10,-6.50874403666e-10,5.6586936309e-10,-7.40358970129e-10,-4.84624135573e-09,1.60632423012e-09
409000000,DH_Ground,PONGBOT_LEG2_V1,0.0,0.0,0.0,0.0,0.0,0.0,1.0,-1.18826615214e-11,1.00910946266e-12,0.00499999999932,5.74902771939e-15,3.48515196663e-12,4.57211185086e-12,1.0,0.0,0.0,0.0,0.0,0.0,0.0,3.70764840422e-10,-4.30887699099e-10,3.66239402995e-10,-4.94611880735e-10,-3.20260227673e-09,1.0635404829e-09
410000000,DH_Ground,PONGBOT_LEG2_V1,0.0,0.0,0.0,0.0,0.0,0.0,1.0,-1.1431022795e-11,4.87200557675e-13,0.00499999999979,-2.88517504393e-13,1.52963826361e-12,5.21931978385e-12,1.0,0.0,0.0,0.0,0.0,0.0,0.0,2.6713946439e-10,-3.10362250694e-10,2.59527930146e-10,-3.58354299443e-10,-2.30420375411e-09,7.66188990144e-10
411000000,DH_Ground,PONGBOT_LEG2_V1,0.0,0.0,0.0,0.0,0.0,0.0,1.0,-1.10334796855e-11,2.84564038999e-14,0.00500000000021,-5.46403645444e-13,-1.91903052426e-13,5.78881270508e-12,1.0,0.0,0.0,0.0,0.0,0.0,0.0,2.11928373492e-10,-2.4614307503e-10,2.04902067137e-10,-2.84367058391e-10,-1.82728369442e-09,6.07761416885e-10
412000000,DH_Ground,PONGBOT_LEG2_V1,0.0,0.0,0.0,0.0,0.0,0.0,1.0,-1.07086006729e-11,-3.45674877611e-13,0.00500000000055,-7.5668984205e-13,-1.59823933793e-12,6.25408264793e-12,1.0,0.0,0.0,0.0,0.0,0.0,0.0,1.38258188016e-10,-1.60432714916e-10,1.28104468889e-10,-1.87971616358e-10,-1.18791187694e-09,3.96360462641e-10
413000000,DH_Ground,PONGBOT_LEG2_V1,0.0,0.0,0.0,0.0,0.0,0.0,1.0,-1.04355135644e-11,-6.59319820961e-13,0.00500000000083,-9.32782143387e-13,-2.77955420033e-12,6.644882382e-12,1.0,0.0,0.0,0.0,0.0,0.0,0.0,8.53442497672e-11,-9.88614987685e-11,7.34639182685e-11,-1.18388576285e-10,-7.29084981354e-10,2.44521797557e-10
414000000,DH_Ground,PONGBOT_LEG2_V1,0.0,0.0,0.0,0.0,0.0,0.0,1.0,-1.022193441e-11,-9.03693786469e-13,0.00500000000105,-1.070188199e-12,-3.70238623707e-12,6.95032877334e-12,1.0,0.0,0.0,0.0,0.0,0.0,0.0,2.48745254818e-11,-2.84686525724e-11,9.37454033993e-12,-3.98272922819e-11,-2.0339872191e-10,7.09612911196e-11
415000000,DH_Ground,PONGBOT_LEG2_V1,0.0,0.0,0.0,0.0,0.0,0.0,1.0,-1.00509045531e-11,-1.09835751605e-12,0.00500000000123,-1.17973884265e-12,-4.44004402648e-12,7.1945862335e-12,1.0,0.0,0.0,0.0,0.0,0.0,0.0,-1.85014929765e-11,2.23292455658e-11,-3.65312757065e-11,1.70625995144e-11,1.75375185927e-10,-5.43691189394e-11
416000000,DH_Ground,PONGBOT_LEG2_V1,0.0,0.0,0.0,0.0,0.0,0.0,1.0,-9.9242003504e-12,-1.24135424162e-12,0.00500000000136,-1.26054936109e-12,-4.98482111121e-12,7.37519513083e-12,1.0,0.0,0.0,0.0,0.0,0.0,0.0,-6.34499685658e-11,7.51024129296e-11,-8.49786157414e-11,7.57215407881e-11,5.69398283851e-10,-1.84667378896e-10
417000000,DH_Ground,PONGBOT_LEG2_V1,0.0,0.0,0.0,0.0,0.0,0.0,1.0,-9.83468861904e-12,-1.34083716352e-12,0.00500000000146,-1.31718988612e-12,-5.36731952673e-12,7.50223252715e-12,1.0,0.0,0.0,0.0,0.0,0.0,0.0,-1.01412432046e-10,1.1967125248e-10,-1.26008628992e-10,1.25199248973e-10,9.02253215888e-10,-2.94711945619e-10
418000000,DH_Ground,PONGBOT_LEG2_V1,0.0,0.0,0.0,0.0,0.0,0.0,1.0,-9.77468106456e-12,-1.40566031037e-12,0.00500000000152,-1.35456508029e-12,-5.62049186601e-12,7.58655337679e-12,1.0,0.0,0.0,0.0,0.0,0.0,0.0,-1.318569325e-10,1.55412003236e-10,-1.58939934132e-10,1.648597063e-10,1.16919627044e-09,-3.82961509154e-10
419000000,DH_Ground,PONGBOT_LEG2_V1,0.0,0.0,0.0,0.0,0.0,0.0,1.0,-9.74065272885e-12,-1.4397719128e-12,0.00500000000155,-1.37490328809e-12,-5.75907103212e-12,7.63287008946e-12,1.0,0.0,0.0,0.0,0.0,0.0,0.0,-1.58955432148e-10,1.87222418106e-10,-1.88388173156e-10,2.00066119917e-10,1.40690269282e-09,-4.6150957143e-10
420000000,DH_Ground,PONGBOT_LEG2_V1,0.0,0.0,0.0,0.0,0.0,0.0,1.0,-9.72960600976e-12,-1.44658590662e-12,0.00500000000155,-1.38011160017e-12,-5.7955885225e-12,7.64534760079e-12,1.0,0.0,0.0,0.0,0.0,0.0,0.0,-1.83179032064e-10,2.15655632213e-10,-2.14825047247e-10,2.31461199972e-10,1.61947856124e-09,-5.31721793325e-10
421000000,DH_Ground,PONGBOT_LEG2_V1,0.0,0.0,0.0,0.0,0.0,0.0,1.0,-9.73668368154e-12,-1.43196565716e-12,0.00500000000154,-1.37344259685e-12,-5.75198122862e-12,7.63125707517e-12,1.0,0.0,0.0,0.0,0.0,0.0,0.0,-2.02393551838e-10,2.38206647942e-10,-2.35800403486e-10,2.56356903416e-10,1.78808263685e-09,-5.87412049301e-10
422000000,DH_Ground,PONGBOT_LEG2_V1,0.0,0.0,0.0,0.0,0.0,0.0,1.0,-9.75697300731e-12,-1.40167044638e-12,0.00500000000151,-1.35807598196e-12,-5.64976183801e-12,7.59772616657e-12,1.0,0.0,0.0,0.0,0.0,0.0,0.0,-2.16698321552e-10,2.54992673063e-10,-2.51397883132e-10,2.74899008557e-10,1.91357092002e-09,-6.28868941992e-10
423000000,DH_Ground,PONGBOT_LEG2_V1,0.0,0.0,0.0,0.0,0.0,0.0,1.0,-9.7888641637e-12,-1.35772643128e-12,0.00500000000147,-1.33514756989e-12,-5.49643595762e-12,7.54725132768e-12,1.0,0.0,0.0,0.0,0.0,0.0,0.0,-2.2928235288e-10,2.69757557878e-10,-2.65160653773e-10,2.91171854416e-10,2.02400410685e-09,-6.65336771714e-10
424000000,DH_Ground,PONGBOT_LEG2_V1,0.0,0.0,0.0,0.0,0.0,0.0,1.0,-9.82822156992e-12,-1.3050047154e-12,0.00500000000142,-1.30732763994e-12,-5.31016999256e-12,7.48584678281e-12,1.0,0.0,0.0,0.0,0.0,0.0,0.0,-2.37724620548e-10,2.79659575722e-10,-2.74336247484e-10,3.02109959978e-10,2.09803790979e-09,-6.89798000082e-10
425000000,DH_Ground,PONGBOT_LEG2_V1,0.0,0.0,0.0,0.0,0.0,0.0,1.0,-9.87329662472e-12,-1.24554533354e-12,0.00500000000136,-1.27575064556e-12,-5.0985739455e-12,7.41603723216e-12,1.0,0.0,0.0,0.0,0.0,0.0,0.0,-2.44428133355e-10,2.87519945034e-10,-2.81627984818e-10,3.10782533825e-10,2.15682189239e-09,-7.09218598425e-10
426000000,DH_Ground,PONGBOT_LEG2_V1,0.0,0.0,0.0,0.0,0.0,0.0,1.0,-9.92139703726e-12,-1.18256099357e-12,0.00500000000131,-1.24218812125e-12,-4.87371181615e-12,7.34181622044e-12,1.0,0.0,0.0,0.0,0.0,0.0,0.0,-2.48382451079e-10,2.92152749483e-10,-2.85855862505e-10,3.15917279056e-10,2.19144299452e-09,-7.20669850948e-10
427000000,DH_Ground,PONGBOT_LEG2_V1,0.0,0.0,0.0,0.0,0.0,0.0,1.0,-9.97091298416e-12,-1.1179945858e-12,0.00500000000125,-1.2077092653e-12,-4.6428208842e-12,7.26558187796e-12,1.0,0.0,0.0,0.0,0.0,0.0,0.0,-2.50686646338e-10,2.94848474947e-10,-2.88277916551e-10,3.18918268507e-10,2.21157546124e-09,-7.27337969988e-10
428000000,DH_Ground,PONGBOT_LEG2_V1,0.0,0.0,0.0,0.0,0.0,0.0,1.0,-1.00205954645e-11,-1.05340042245e-12,0.00500000000119,-1.17316833786e-12,-4.41170142392e-12,7.18925495814e-12,1.0,0.0,0.0,0.0,0.0,0.0,0.0,-2.51670201893e-10,2.95994014096e-10,-2.89252159869e-10,3.20215682307e-10,2.22010510852e-09,-7.30178121354e-10
429000000,DH_Ground,PONGBOT_LEG2_V1,0.0,0.0,0.0,0.0,0.0,0.0,1.0,-1.00690844551e-11,-9.90235671239e-13,0.00500000000113,-1.13936114142e-12,-4.18575493395e-12,7.1146259245e-12,1.0,0.0,0.0,0.0,0.0,0.0,0.0,-2.5142356458e-10,2.95695770579e-10,-2.88859278679e-10,3.19927275072e-10,2.21783804388e-09,-7.29452804255e-10
